<?xml version="1.0" encoding="utf-8"?>
<ArrayOfStation xmlns:xsi="http://www.w3.org/2001/XMLSchema-instance" xmlns:xsd="http://www.w3.org/2001/XMLSchema">
  <Station>
    <Code>75</Code>
    <Name>שדרות גולדה מאיר/המשורר אצ''ג</Name>
    <Longitude>35.188624</Longitude>
    <Lattitude>31.825302</Lattitude>
    <Address>רחוב:שדרות גולדה מאיר  עיר: ירושלים </Address>
  </Station>
  <Station>
    <Code>76</Code>
    <Name>בית ספר צור באהר בנות/אלמדינה אלמונוורה</Name>
    <Longitude>35.228765</Longitude>
    <Lattitude>31.738425</Lattitude>
    <Address>רחוב:אל מדינה אל מונאוורה  עיר: ירושלים</Address>
  </Station>
  <Station>
    <Code>77</Code>
    <Name>בית ספר אבן רשד/אלמדינה אלמונוורה</Name>
    <Longitude>35.226704</Longitude>
    <Lattitude>31.738676</Lattitude>
    <Address>רחוב:אל מדינה אל מונאוורה  עיר: ירושלים </Address>
  </Station>
  <Station>
    <Code>78</Code>
    <Name>שרי ישראל/יפו</Name>
    <Longitude>35.206146</Longitude>
    <Lattitude>31.789128</Lattitude>
    <Address>רחוב:שדרות שרי ישראל 15 עיר: ירושלים</Address>
  </Station>
  <Station>
    <Code>83</Code>
    <Name>בטן אלהווא/חוש אל מרג</Name>
    <Longitude>35.240417</Longitude>
    <Lattitude>31.766358</Lattitude>
    <Address>רחוב:בטן אל הווא  עיר: ירושלים</Address>
  </Station>
  <Station>
    <Code>84</Code>
    <Name>מלכי ישראל/הטורים</Name>
    <Longitude>35.209791</Longitude>
    <Lattitude>31.790758</Lattitude>
    <Address> רחוב:מלכי ישראל 77 עיר: ירושלים </Address>
  </Station>
  <Station>
    <Code>85</Code>
    <Name>בית ספר לבנים/אלמדארס</Name>
    <Longitude>35.238509</Longitude>
    <Lattitude>31.768643</Lattitude>
    <Address>רחוב:אלמדארס  עיר: ירושלים</Address>
  </Station>
  <Station>
    <Code>86</Code>
    <Name>מגרש כדורגל/אלמדארס</Name>
    <Longitude>35.23973</Longitude>
    <Lattitude>31.769899</Lattitude>
    <Address>רחוב:אלמדארס  עיר: ירושלים</Address>
  </Station>
  <Station>
    <Code>87</Code>
    <Name>מגרש כדורסל/אלמדארס</Name>
    <Longitude>35.23973</Longitude>
    <Lattitude>31.769898</Lattitude>
    <Address>רחוב:אלמדארס  עיר 5: ירושלים</Address>
  </Station>
  <Station>
    <Code>88</Code>
    <Name>בית ספר לבנות/בטן אלהוא</Name>
    <Longitude>35.238443</Longitude>
    <Lattitude>31.767064</Lattitude>
    <Address> רחוב:בטן אל הווא  עיר: ירושלים</Address>
  </Station>
  <Station>
    <Code>89</Code>
    <Name>דרך בית לחם הישה/ואדי קדום</Name>
    <Longitude>35.247198</Longitude>
    <Lattitude>31.765863</Lattitude>
    <Address> רחוב:דרך בית לחם הישנה  עיר: ירושלים </Address>
  </Station>
  <Station>
    <Code>90</Code>
    <Name>גולדה/הרטום</Name>
    <Longitude>35.213021</Longitude>
    <Lattitude>31.799804</Lattitude>
    <Address>רחוב:דרך בית לחם הישנה  עיר: ירושלים</Address>
  </Station>
  <Station>
    <Code>91</Code>
    <Name>דרך בית לחם הישה/ואדי קדום</Name>
    <Longitude>35.247102</Longitude>
    <Lattitude>31.765717</Lattitude>
    <Address> רחוב:דרך בית לחם הישנה  עיר: ירושלים </Address>
  </Station>
  <Station>
    <Code>92</Code>
    <Name>הוועד הלאומי/שמואל ווערס</Name>
    <Longitude>35.247002</Longitude>
    <Lattitude>31.705717</Lattitude>
    <Address> רחוב:הוועד הלאומי: ירושלים </Address>
  </Station>
  <Station>
    <Code>93</Code>
    <Name>חוש סלימה 1</Name>
    <Longitude>35.246594</Longitude>
    <Lattitude>31.767265</Lattitude>
    <Address> רחוב:דרך בית לחם הישנה  עיר: ירושלים</Address>
  </Station>
  <Station>
    <Code>94</Code>
    <Name>דרך בית לחם הישנה ב</Name>
    <Longitude>35.246655</Longitude>
    <Lattitude>31.767084</Lattitude>
    <Address> רחוב:דרך בית לחם הישנה  עיר: ירושלים</Address>
  </Station>
  <Station>
    <Code>95</Code>
    <Name>דרך בית לחם הישנה א</Name>
    <Longitude>31.768759</Longitude>
    <Lattitude>31.768759</Lattitude>
    <Address> רחוב:דרך בית לחם הישנה  עיר: ירושלים</Address>
  </Station>
  <Station>
    <Code>96</Code>
    <Name>פרויקט בסי שרפ זה גשמק !</Name>
    <Longitude>35.668559</Longitude>
    <Lattitude>31.763321</Lattitude>
    <Address>רחוב:דרך בית לחם הישנה  עיר: ירושלים</Address>
  </Station>
  <Station>
    <Code>97</Code>
    <Name>שכונת בזבז 2</Name>
    <Longitude>35.24348</Longitude>
    <Lattitude>31.77002</Lattitude>
    <Address> רחוב:דרך בית לחם הישנה  עיר: ירושלים</Address>
  </Station>
  <Station>
    <Code>102</Code>
    <Name>גולדה/שלמה הלוי</Name>
    <Longitude>35.208257</Longitude>
    <Lattitude>31.8003</Lattitude>
    <Address> רחוב:שדרות גולדה מאיר  עיר: ירושלים</Address>
  </Station>
  <Station>
    <Code>103</Code>
    <Name>גולדה/הרטום</Name>
    <Longitude>35.214106</Longitude>
    <Lattitude>31.8</Lattitude>
    <Address> רחוב:שדרות גולדה מאיר  עיר: ירושלים</Address>
  </Station>
  <Station>
    <Code>104</Code>
    <Name>יהודה/ליידסטרום</Name>
    <Longitude>35.321321</Longitude>
    <Lattitude>31.887646</Lattitude>
    <Address> רחוב: הרב יהודה ליידסטרום: ירושלים</Address>
  </Station>
  <Station>
    <Code>105</Code>
    <Name>גבעת משה</Name>
    <Longitude>35.217133</Longitude>
    <Lattitude>31.797708</Lattitude>
    <Address> רחוב:גבעת משה 2 עיר: ירושלים</Address>
  </Station>
  <Station>
    <Code>106</Code>
    <Name>גבעת משה</Name>
    <Longitude>35.217057</Longitude>
    <Lattitude>31.797535</Lattitude>
    <Address> רחוב:גבעת משה 3 עיר: ירושלים</Address>
  </Station>
  <Station>
    <Code>108</Code>
    <Name>עזרת תורה/עלי הכהן</Name>
    <Longitude>35.213728</Longitude>
    <Lattitude>31.797535</Lattitude>
    <Address>  רחוב:עזרת תורה 25 עיר: ירושלים</Address>
  </Station>
  <Station>
    <Code>109</Code>
    <Name>עזרת תורה/דורש טוב</Name>
    <Longitude>35.212936</Longitude>
    <Lattitude>31.796818</Lattitude>
    <Address>  רחוב:עזרת תורה 21 עיר: ירושלים </Address>
  </Station>
  <Station>
    <Code>110</Code>
    <Name>עזרת תורה/דורש טוב</Name>
    <Longitude>35.212698</Longitude>
    <Lattitude>31.796129</Lattitude>
    <Address> רחוב:עזרת תורה 12 עיר: ירושלים</Address>
  </Station>
  <Station>
    <Code>111</Code>
    <Name>יעקובזון/עזרת תורה</Name>
    <Longitude>35.21161</Longitude>
    <Lattitude>31.794631</Lattitude>
    <Address>  רחוב:יעקובזון 1 עיר: ירושלים</Address>
  </Station>
  <Station>
    <Code>112</Code>
    <Name>יעקובזון/עזרת תורה</Name>
    <Longitude>35.211684</Longitude>
    <Lattitude>31.79508</Lattitude>
    <Address> רחוב:יעקובזון  עיר: ירושלים</Address>
  </Station>
  <Station>
    <Code>113</Code>
    <Name>זית רענן/אוהל יהושע</Name>
    <Longitude>35.211065</Longitude>
    <Lattitude>31.796255</Lattitude>
    <Address>  רחוב:זית רענן 1 עיר: ירושלים</Address>
  </Station>
  <Station>
    <Code>114</Code>
    <Name>ישיבת/פרשבורג</Name>
    <Longitude>35.210058</Longitude>
    <Lattitude>31.796359</Lattitude>
    <Address>  רחוב:קצנלנבוגן: ירושלים</Address>
  </Station>
  <Station>
    <Code>115</Code>
    <Name>זית רענן/תורת חסד</Name>
    <Longitude>35.209575</Longitude>
    <Lattitude>31.798423</Lattitude>
    <Address> רחוב:זית רענן  עיר: ירושלים</Address>
  </Station>
  <Station>
    <Code>116</Code>
    <Name>זית רענן/תורת חסד</Name>
    <Longitude>35.208878</Longitude>
    <Lattitude>31.798689</Lattitude>
    <Address>  רחוב:הרב סורוצקין 48 עיר: ירושלים </Address>
  </Station>
  <Station>
    <Code>117</Code>
    <Name>קרית הילד/סורוצקין</Name>
    <Longitude>35.206918</Longitude>
    <Lattitude>31.799165</Lattitude>
    <Address>  רחוב:הרב סורוצקין  עיר: ירושלים</Address>
  </Station>
  <Station>
    <Code>118</Code>
    <Name>מאמי/איפה הלכת</Name>
    <Longitude>35.200018</Longitude>
    <Lattitude>31.791165</Lattitude>
    <Address>  רחוב:מאו פו פה דכונה: ירושלים</Address>
  </Station>
  <Station>
    <Code>119</Code>
    <Name>סורוצקין/שנירר</Name>
    <Longitude>35.205601</Longitude>
    <Lattitude>31.797829</Lattitude>
    <Address>  רחוב:הרב סורוצקין 31 עיר: ירושלים</Address>
  </Station>
  <Station>
    <Code>120</Code>
    <Name>ארקיטקט /שנירר</Name>
    <Longitude>35.205601</Longitude>
    <Lattitude>31.797829</Lattitude>
    <Address>  רחוב:הרב סורוצקין 38 עיר: ירושלים</Address>
  </Station>
  <Station>
    <Code>1485</Code>
    <Name>שדרות נווה יעקוב/הרב פרדס </Name>
    <Longitude>35.240062</Longitude>
    <Lattitude>31.840063</Lattitude>
    <Address>רחוב: שדרות נווה יעקוב  עיר:ירושלים </Address>
  </Station>
  <Station>
    <Code>1486</Code>
    <Name>מרכז קהילתי /שדרות נווה יעקוב</Name>
    <Longitude>35.23972</Longitude>
    <Lattitude>31.838481</Lattitude>
    <Address>רחוב:שדרות נווה יעקוב ירושלים עיר:ירושלים </Address>
  </Station>
  <Station>
    <Code>1487</Code>
    <Name> מסוף 700 /שדרות נווה יעקוב </Name>
    <Longitude>35.231598</Longitude>
    <Lattitude>31.837748</Lattitude>
    <Address>חוב:שדרות נווה יעקב 7 עיר: ירושלים  </Address>
  </Station>
  <Station>
    <Code>1488</Code>
    <Name> הרב פרדס/אסטורהב </Name>
    <Longitude>35.246272</Longitude>
    <Lattitude>31.840279</Lattitude>
    <Address>רחוב:מעגלות הרב פרדס  עיר: ירושלים רציף  </Address>
  </Station>
  <Station>
    <Code>1489</Code>
    <Name> ישיבת/אופקים </Name>
    <Longitude>35.241472</Longitude>
    <Lattitude>31.849856</Lattitude>
    <Address>רחוב:ישיבת אופקים: ירושלים רציף  </Address>
  </Station>
  <Station>
    <Code>1490</Code>
    <Name>הרב פרדס/צוקרמן </Name>
    <Longitude>35.243639</Longitude>
    <Lattitude>31.843598</Lattitude>
    <Address>רחוב:מעגלות הרב פרדס 24 עיר: ירושלים   </Address>
  </Station>
  <Station>
    <Code>1491</Code>
    <Name>ברזיל </Name>
    <Longitude>35.173</Longitude>
    <Lattitude>31.766256</Lattitude>
    <Address>רחוב:ברזיל 14 עיר: ירושלים</Address>
  </Station>
  <Station>
    <Code>1492</Code>
    <Name>בית וגן/הרב שאג </Name>
    <Longitude>35.184771</Longitude>
    <Lattitude>31.76736</Lattitude>
    <Address>רחוב:בית וגן 61 עיר: ירושלים </Address>
  </Station>
  <Station>
    <Code>1493</Code>
    <Name>בית וגן/עוזיאל </Name>
    <Longitude>35.183999</Longitude>
    <Lattitude>31.770543</Lattitude>
    <Address>רחוב:בית וגן 21 עיר: ירושלים    </Address>
  </Station>
  <Station>
    <Code>1494</Code>
    <Name> קרית יובל/שמריהו לוין </Name>
    <Longitude>35.178701</Longitude>
    <Lattitude>31.768465</Lattitude>
    <Address>רחוב:ארתור הנטקה  עיר: ירושלים    </Address>
  </Station>
  <Station>
    <Code>1510</Code>
    <Name> קורצ'אק / רינגלבלום </Name>
    <Longitude>35.173688</Longitude>
    <Lattitude>31.759534</Lattitude>
    <Address>רחוב:יאנוש קורצ'אק 7 עיר: ירושלים</Address>
  </Station>
  <Station>
    <Code>1511</Code>
    <Name> טהון/גולומב </Name>
    <Longitude>35.175929</Longitude>
    <Lattitude>31.761447</Lattitude>
    <Address>רחוב:יעקב טהון  עיר: ירושלים     </Address>
  </Station>
  <Station>
    <Code>1512</Code>
    <Name>הרב הרצוג/שח''ל </Name>
    <Longitude>35.199936</Longitude>
    <Lattitude>31.761447</Lattitude>
    <Address>רחוב:הרב הרצוג  עיר: ירושלים רציף</Address>
  </Station>
  <Station>
    <Code>1513</Code>
    <Name>הציונים !</Name>
    <Longitude>35.123456</Longitude>
    <Lattitude>31.765432</Lattitude>
    <Address>רחוב:הרצל  עיר: ירושלים</Address>
  </Station>
  <Station>
    <Code>1514</Code>
    <Name>פרץ ברנשטיין/נזר דוד </Name>
    <Longitude>35.189336</Longitude>
    <Lattitude>31.759186</Lattitude>
    <Address>רחוב:הרב הרצוג  עיר: ירושלים רציף</Address>
  </Station>
  <Station>
    <Code>1515</Code>
    <Name> תל אביב יה חביבי/תל אביב</Name>
    <Longitude>35.189336</Longitude>
    <Lattitude>31.759789</Lattitude>
    <Address>און פה ריגולה </Address>
  </Station>
  <Station>
    <Code>1516</Code>
    <Name> הלו הלו מה זה</Name>
    <Longitude>35.189336</Longitude>
    <Lattitude>31.759186</Lattitude>
    <Address>זה מקום פרטי</Address>
  </Station>
  <Station>
    <Code>1517</Code>
    <Name> גלילי גלילאו</Name>
    <Longitude>35.189336</Longitude>
    <Lattitude>31.759186</Lattitude>
    <Address>פיסיקה א</Address>
  </Station>
  <Station>
    <Code>1518</Code>
    <Name>פרץ ברנשטיין/נזר דוד</Name>
    <Longitude>35.189178</Longitude>
    <Lattitude>31.759121</Lattitude>
    <Address> רחוב:פרץ ברנשטיין 56 עיר: ירושלים </Address>
  </Station>
  <Station>
    <Code>1522</Code>
    <Name>מוזיאון ישראל/רופין</Name>
    <Longitude>35.204882</Longitude>
    <Lattitude>31.774484</Lattitude>
    <Address>  רחוב:דרך רופין  עיר: ירושלים </Address>
  </Station>
  <Station>
    <Code>1523</Code>
    <Name>הרצוג/טשרניחובסקי</Name>
    <Longitude>35.208248</Longitude>
    <Lattitude>31.769652</Lattitude>
    <Address>   רחוב:הרב הרצוג  עיר: ירושלים  </Address>
  </Station>
  <Station>
    <Code>1524</Code>
    <Name>רופין/שד' הזז</Name>
    <Longitude>35.208248</Longitude>
    <Lattitude>31.769652</Lattitude>
    <Address>    רחוב:הרב הרצוג  עיר: ירושלים   </Address>
  </Station>
  <Station>
    <Code>121</Code>
    <Name>מרכז סולם/סורוצקין </Name>
    <Longitude>35.206094</Longitude>
    <Lattitude>31.796033</Lattitude>
    <Address> רחוב:הרב סורוצקין 13 עיר: ירושלים</Address>
  </Station>
  <Station>
    <Code>122</Code>
    <Name>אוהל דוד/סורוצקין </Name>
    <Longitude>35.205216</Longitude>
    <Lattitude>31.794958</Lattitude>
    <Address>  רחוב:הרב סורוצקין 9 עיר: ירושלים</Address>
  </Station>
  <Station>
    <Code>123</Code>
    <Name>מרכז סולם/סורוצקין </Name>
    <Longitude>35.206158</Longitude>
    <Lattitude>31.79617</Lattitude>
    <Address>  רחוב:הרב סורוצקין 28 עיר: ירושלים</Address>
  </Station>
</ArrayOfStation>